{
"type": "FeatureCollection",
"crs": { "type": "name", "properties": { "name": "urn:ogc:def:crs:OGC:1.3:CRS84" } },
                                                                                
"features": [
{ "type": "Feature", "properties": { "iso": "101", "name": "Eisenstadt (Stadt)" }, "geometry": { "type": "Point", "coordinates": [ 16.533120014065197, 47.845389363163811 ] } },
{ "type": "Feature", "properties": { "iso": "102", "name": "Rust (Stadt)" }, "geometry": { "type": "Point", "coordinates": [ 16.686489767008691, 47.802396129265745 ] } },
{ "type": "Feature", "properties": { "iso": "304", "name": "Wiener Neustadt (Stadt)" }, "geometry": { "type": "Point", "coordinates": [ 16.221990506396164, 47.804761607031324 ] } },
{ "type": "Feature", "properties": { "iso": "303", "name": "Waidhofen an der Ybbs (Stadt)" }, "geometry": { "type": "Point", "coordinates": [ 14.778477580463223, 47.956491561137597 ] } },
{ "type": "Feature", "properties": { "iso": "701", "name": "Innsbruck-Stadt" }, "geometry": { "type": "Point", "coordinates": [ 11.380451353967691, 47.288836460394258 ] } },
{ "type": "Feature", "properties": { "iso": "418", "name": "Wels-Land" }, "geometry": { "type": "Point", "coordinates": [ 13.973169839019281, 48.126281172442127 ] } },
{ "type": "Feature", "properties": { "iso": "407", "name": "Gmunden" }, "geometry": { "type": "Point", "coordinates": [ 13.755139758616487, 47.761116931269214 ] } },
{ "type": "Feature", "properties": { "iso": "103", "name": "Eisenstadt-Umgebung" }, "geometry": { "type": "Point", "coordinates": [ 16.592132954669722, 47.85422210895122 ] } },
{ "type": "Feature", "properties": { "iso": "106", "name": "Mattersburg" }, "geometry": { "type": "Point", "coordinates": [ 16.401119688881309, 47.735965964942224 ] } },
{ "type": "Feature", "properties": { "iso": "203", "name": "Hermagor" }, "geometry": { "type": "Point", "coordinates": [ 13.123537549341295, 46.647270983250003 ] } },
{ "type": "Feature", "properties": { "iso": "403", "name": "Wels (Stadt)" }, "geometry": { "type": "Point", "coordinates": [ 14.020404070496518, 48.174691293956165 ] } },
{ "type": "Feature", "properties": { "iso": "322", "name": "Waidhofen an der Thaya" }, "geometry": { "type": "Point", "coordinates": [ 15.347710808377791, 48.852189461279707 ] } },
{ "type": "Feature", "properties": { "iso": "408", "name": "Grieskirchen" }, "geometry": { "type": "Point", "coordinates": [ 13.7692525994392, 48.26932938665486 ] } },
{ "type": "Feature", "properties": { "iso": "309", "name": "Gmuend" }, "geometry": { "type": "Point", "coordinates": [ 14.973893115650929, 48.776781773366842 ] } },
{ "type": "Feature", "properties": { "iso": "406", "name": "Freistadt" }, "geometry": { "type": "Point", "coordinates": [ 14.630469337276304, 48.466219428709891 ] } },
{ "type": "Feature", "properties": { "iso": "202", "name": "Villach Stadt" }, "geometry": { "type": "Point", "coordinates": [ 13.835594281635222, 46.610865750028211 ] } },
{ "type": "Feature", "properties": { "iso": "409", "name": "Kirchdorf an der Krems" }, "geometry": { "type": "Point", "coordinates": [ 14.209358494304562, 47.817279141738403 ] } },
{ "type": "Feature", "properties": { "iso": "302", "name": "St.Poelten (Stadt)" }, "geometry": { "type": "Point", "coordinates": [ 15.641945669527667, 48.198980293625617 ] } },
{ "type": "Feature", "properties": { "iso": "410", "name": "Linz-Land" }, "geometry": { "type": "Point", "coordinates": [ 14.281379201356829, 48.190805774598743 ] } },
{ "type": "Feature", "properties": { "iso": "402", "name": "Steyr (Stadt)" }, "geometry": { "type": "Point", "coordinates": [ 14.421505662487569, 48.054387205533303 ] } },
{ "type": "Feature", "properties": { "iso": "610", "name": "Leibnitz" }, "geometry": { "type": "Point", "coordinates": [ 15.511930824844274, 46.781915923185139 ] } },
{ "type": "Feature", "properties": { "iso": "320", "name": "Scheibbs" }, "geometry": { "type": "Point", "coordinates": [ 15.089134316728957, 47.928064817266716 ] } },
{ "type": "Feature", "properties": { "iso": "311", "name": "Horn" }, "geometry": { "type": "Point", "coordinates": [ 15.67855029314253, 48.713522922034777 ] } },
{ "type": "Feature", "properties": { "iso": "301", "name": "Krems an der Donau (Stadt)" }, "geometry": { "type": "Point", "coordinates": [ 15.618133312395194, 48.409012353956292 ] } },
{ "type": "Feature", "properties": { "iso": "623", "name": "Suedoststeiermark" }, "geometry": { "type": "Point", "coordinates": [ 15.840313433016608, 46.876418280416736 ] } },
{ "type": "Feature", "properties": { "iso": "315", "name": "Melk" }, "geometry": { "type": "Point", "coordinates": [ 15.226842277220726, 48.213583900721417 ] } },
{ "type": "Feature", "properties": { "iso": "319", "name": "Sankt Poelten (Land)" }, "geometry": { "type": "Point", "coordinates": [ 15.646672804305041, 48.158876409024458 ] } },
{ "type": "Feature", "properties": { "iso": "314", "name": "Lilienfeld" }, "geometry": { "type": "Point", "coordinates": [ 15.582478999153277, 47.927824740446724 ] } },
{ "type": "Feature", "properties": { "iso": "603", "name": "Deutschlandsberg" }, "geometry": { "type": "Point", "coordinates": [ 15.198348817695338, 46.80747017384855 ] } },
{ "type": "Feature", "properties": { "iso": "325", "name": "Zwettl" }, "geometry": { "type": "Point", "coordinates": [ 15.153987613419547, 48.555347945324961 ] } },
{ "type": "Feature", "properties": { "iso": "312", "name": "Korneuburg" }, "geometry": { "type": "Point", "coordinates": [ 16.254827911948929, 48.4385358686499 ] } },
{ "type": "Feature", "properties": { "iso": "803", "name": "Dornbirn" }, "geometry": { "type": "Point", "coordinates": [ 9.746839564322993, 47.380148019788756 ] } },
{ "type": "Feature", "properties": { "iso": "501", "name": "Salzburg (Stadt)" }, "geometry": { "type": "Point", "coordinates": [ 13.046584772014194, 47.797587735875837 ] } },
{ "type": "Feature", "properties": { "iso": "612", "name": "Liezen" }, "geometry": { "type": "Point", "coordinates": [ 14.205508324456702, 47.520033446898537 ] } },
{ "type": "Feature", "properties": { "iso": "416", "name": "Urfahr-Umgebung" }, "geometry": { "type": "Point", "coordinates": [ 14.270349483377148, 48.419753941712678 ] } },
{ "type": "Feature", "properties": { "iso": "401", "name": "Linz (Stadt)" }, "geometry": { "type": "Point", "coordinates": [ 14.316132977864168, 48.284348619602738 ] } },
{ "type": "Feature", "properties": { "iso": "308", "name": "Gaenserndorf" }, "geometry": { "type": "Point", "coordinates": [ 16.750765770840726, 48.35101543154272 ] } },
{ "type": "Feature", "properties": { "iso": "109", "name": "Oberwart" }, "geometry": { "type": "Point", "coordinates": [ 16.265794625709184, 47.295694402485729 ] } },
{ "type": "Feature", "properties": { "iso": "415", "name": "Steyr-Land" }, "geometry": { "type": "Point", "coordinates": [ 14.477398095645473, 47.913948455695213 ] } },
{ "type": "Feature", "properties": { "iso": "310", "name": "Hollabrunn" }, "geometry": { "type": "Point", "coordinates": [ 16.005427999939219, 48.637562027887945 ] } },
{ "type": "Feature", "properties": { "iso": "622", "name": "Hartberg-Fuerstenfeld" }, "geometry": { "type": "Point", "coordinates": [ 15.946198954890496, 47.28557682334668 ] } },
{ "type": "Feature", "properties": { "iso": "105", "name": "Jennersdorf" }, "geometry": { "type": "Point", "coordinates": [ 16.144938379012611, 46.967688469869806 ] } },
{ "type": "Feature", "properties": { "iso": "313", "name": "Krems (Land)" }, "geometry": { "type": "Point", "coordinates": [ 15.510975053818672, 48.461833397140893 ] } },
{ "type": "Feature", "properties": { "iso": "316", "name": "Mistelbach" }, "geometry": { "type": "Point", "coordinates": [ 16.538626412092604, 48.61000080067415 ] } },
{ "type": "Feature", "properties": { "iso": "210", "name": "Feldkirchen" }, "geometry": { "type": "Point", "coordinates": [ 14.006365065566394, 46.788482422971462 ] } },
{ "type": "Feature", "properties": { "iso": "505", "name": "Tamsweg" }, "geometry": { "type": "Point", "coordinates": [ 13.666110199202189, 47.140437051861426 ] } },
{ "type": "Feature", "properties": { "iso": "417", "name": "Voecklabruck" }, "geometry": { "type": "Point", "coordinates": [ 13.532841235840886, 47.964046271851728 ] } },
{ "type": "Feature", "properties": { "iso": "305", "name": "Amstetten" }, "geometry": { "type": "Point", "coordinates": [ 14.74710954154645, 48.034218169602084 ] } },
{ "type": "Feature", "properties": { "iso": "411", "name": "Perg" }, "geometry": { "type": "Point", "coordinates": [ 14.737895349197407, 48.275172430438026 ] } },
{ "type": "Feature", "properties": { "iso": "104", "name": "Guessing" }, "geometry": { "type": "Point", "coordinates": [ 16.297352922442915, 47.102393242659858 ] } },
{ "type": "Feature", "properties": { "iso": "706", "name": "Landeck" }, "geometry": { "type": "Point", "coordinates": [ 10.483052895364091, 47.033718624437512 ] } },
{ "type": "Feature", "properties": { "iso": "617", "name": "Weiz" }, "geometry": { "type": "Point", "coordinates": [ 15.680903704397489, 47.280206252825195 ] } },
{ "type": "Feature", "properties": { "iso": "201", "name": "Klagenfurt Stadt" }, "geometry": { "type": "Point", "coordinates": [ 14.295831248329774, 46.63885585311494 ] } },
{ "type": "Feature", "properties": { "iso": "601", "name": "Graz (Stadt)" }, "geometry": { "type": "Point", "coordinates": [ 15.439350273540274, 47.075127651207858 ] } },
{ "type": "Feature", "properties": { "iso": "606", "name": "Graz-Umgebung" }, "geometry": { "type": "Point", "coordinates": [ 15.381419888795087, 47.133829274744421 ] } },
{ "type": "Feature", "properties": { "iso": "804", "name": "Feldkirch" }, "geometry": { "type": "Point", "coordinates": [ 9.66653867183147, 47.267440912660518 ] } },
{ "type": "Feature", "properties": { "iso": "306", "name": "Baden" }, "geometry": { "type": "Point", "coordinates": [ 16.167268298721091, 47.98887354642995 ] } },
{ "type": "Feature", "properties": { "iso": "504", "name": "Sankt Johann im Pongau" }, "geometry": { "type": "Point", "coordinates": [ 13.267898214236151, 47.307880629889958 ] } },
{ "type": "Feature", "properties": { "iso": "801", "name": "Bludenz" }, "geometry": { "type": "Point", "coordinates": [ 9.941898329925342, 47.102585814265353 ] } },
{ "type": "Feature", "properties": { "iso": "900", "name": "Wien" }, "geometry": { "type": "Point", "coordinates": [ 16.377841785029897, 48.20844285941731 ] } },
{ "type": "Feature", "properties": { "iso": "317", "name": "Moedling" }, "geometry": { "type": "Point", "coordinates": [ 16.243373466813296, 48.088423310062154 ] } },
{ "type": "Feature", "properties": { "iso": "321", "name": "Tulln" }, "geometry": { "type": "Point", "coordinates": [ 15.964863728134359, 48.351908410276835 ] } },
{ "type": "Feature", "properties": { "iso": "324", "name": "Wien-Umgebung" }, "geometry": { "type": "Point", "coordinates": [ 16.329273083623253, 48.174149868064625 ] } },
{ "type": "Feature", "properties": { "iso": "707", "name": "Lienz" }, "geometry": { "type": "Point", "coordinates": [ 12.521660954433953, 46.909723488175509 ] } },
{ "type": "Feature", "properties": { "iso": "502", "name": "Hallein" }, "geometry": { "type": "Point", "coordinates": [ 13.267514444764453, 47.607932839026837 ] } },
{ "type": "Feature", "properties": { "iso": "614", "name": "Murau" }, "geometry": { "type": "Point", "coordinates": [ 14.176652316783919, 47.12803226604143 ] } },
{ "type": "Feature", "properties": { "iso": "704", "name": "Kitzbuehel" }, "geometry": { "type": "Point", "coordinates": [ 12.375248181117461, 47.463233274752234 ] } },
{ "type": "Feature", "properties": { "iso": "705", "name": "Kufstein" }, "geometry": { "type": "Point", "coordinates": [ 12.057994368795098, 47.519386545482881 ] } },
{ "type": "Feature", "properties": { "iso": "506", "name": "Zell am See" }, "geometry": { "type": "Point", "coordinates": [ 12.655417423537155, 47.297493089010821 ] } },
{ "type": "Feature", "properties": { "iso": "503", "name": "Salzburg-Umgebung" }, "geometry": { "type": "Point", "coordinates": [ 13.18582203515049, 47.841777519975047 ] } },
{ "type": "Feature", "properties": { "iso": "318", "name": "Neunkirchen" }, "geometry": { "type": "Point", "coordinates": [ 15.942697800995443, 47.688215897300744 ] } },
{ "type": "Feature", "properties": { "iso": "323", "name": "Wiener Neustadt (Land)" }, "geometry": { "type": "Point", "coordinates": [ 16.108896833333812, 47.756178964234365 ] } },
{ "type": "Feature", "properties": { "iso": "621", "name": "Bruck-Muerzzuschlag" }, "geometry": { "type": "Point", "coordinates": [ 15.379079515475913, 47.576901631542043 ] } },
{ "type": "Feature", "properties": { "iso": "611", "name": "Leoben" }, "geometry": { "type": "Point", "coordinates": [ 14.907807252878381, 47.429808230449282 ] } },
{ "type": "Feature", "properties": { "iso": "307", "name": "Bruck an der Leitha" }, "geometry": { "type": "Point", "coordinates": [ 16.757106077308592, 48.054496371675476 ] } },
{ "type": "Feature", "properties": { "iso": "107", "name": "Neusiedl am See" }, "geometry": { "type": "Point", "coordinates": [ 16.917579409132362, 47.881199987305777 ] } },
{ "type": "Feature", "properties": { "iso": "108", "name": "Oberpullendorf" }, "geometry": { "type": "Point", "coordinates": [ 16.483562847995934, 47.512985315041448 ] } },
{ "type": "Feature", "properties": { "iso": "204", "name": "Klagenfurt Land" }, "geometry": { "type": "Point", "coordinates": [ 14.294907672033245, 46.569945917133104 ] } },
{ "type": "Feature", "properties": { "iso": "207", "name": "Villach-Land" }, "geometry": { "type": "Point", "coordinates": [ 13.76842078545879, 46.643245509807144 ] } },
{ "type": "Feature", "properties": { "iso": "209", "name": "Wolfsberg" }, "geometry": { "type": "Point", "coordinates": [ 14.850322721640207, 46.846008205930417 ] } },
{ "type": "Feature", "properties": { "iso": "205", "name": "Sankt Veit an der Glan" }, "geometry": { "type": "Point", "coordinates": [ 14.340773373333644, 46.88399455918784 ] } },
{ "type": "Feature", "properties": { "iso": "620", "name": "Murtal" }, "geometry": { "type": "Point", "coordinates": [ 14.641586211414859, 47.240404907651794 ] } },
{ "type": "Feature", "properties": { "iso": "616", "name": "Voitsberg" }, "geometry": { "type": "Point", "coordinates": [ 15.077949804208265, 47.058105770985733 ] } },
{ "type": "Feature", "properties": { "iso": "206", "name": "Spittal an der Drau" }, "geometry": { "type": "Point", "coordinates": [ 13.271242884687537, 46.898596417878991 ] } },
{ "type": "Feature", "properties": { "iso": "802", "name": "Bregenz" }, "geometry": { "type": "Point", "coordinates": [ 9.926125081864555, 47.407317383791508 ] } },
{ "type": "Feature", "properties": { "iso": "208", "name": "Voelkermarkt" }, "geometry": { "type": "Point", "coordinates": [ 14.656786490649216, 46.596140873548499 ] } },
{ "type": "Feature", "properties": { "iso": "708", "name": "Reutte (Ausserfern)" }, "geometry": { "type": "Point", "coordinates": [ 10.582922193003757, 47.380069051794877 ] } },
{ "type": "Feature", "properties": { "iso": "703", "name": "Innsbruck-Land" }, "geometry": { "type": "Point", "coordinates": [ 11.341771923029304, 47.196400908772389 ] } },
{ "type": "Feature", "properties": { "iso": "702", "name": "Imst" }, "geometry": { "type": "Point", "coordinates": [ 10.896113660188172, 47.086808858088325 ] } },
{ "type": "Feature", "properties": { "iso": "414", "name": "Schaerding" }, "geometry": { "type": "Point", "coordinates": [ 13.589280166717886, 48.432225749506607 ] } },
{ "type": "Feature", "properties": { "iso": "404", "name": "Braunau am Inn" }, "geometry": { "type": "Point", "coordinates": [ 13.085437627390244, 48.127143477670487 ] } },
{ "type": "Feature", "properties": { "iso": "412", "name": "Ried im Innkreis" }, "geometry": { "type": "Point", "coordinates": [ 13.442055870761941, 48.220301781749058 ] } },
{ "type": "Feature", "properties": { "iso": "709", "name": "Schwaz" }, "geometry": { "type": "Point", "coordinates": [ 11.783161867567745, 47.274211360060555 ] } },
{ "type": "Feature", "properties": { "iso": "413", "name": "Rohrbach" }, "geometry": { "type": "Point", "coordinates": [ 13.960381441596654, 48.55862888046213 ] } },
{ "type": "Feature", "properties": { "iso": "405", "name": "Eferding" }, "geometry": { "type": "Point", "coordinates": [ 13.984455336328732, 48.322849858024512 ] } }
]
}
